[
  {"name": "Vandenberg AFB", "lat": 34.7420, "lon": -120.5725, "country": "USA", "type": "test"},
  {"name": "Fort Greely", "lat": 63.8845, "lon": -145.7356, "country": "USA", "type": "gmd"},
  {"name": "Kwajalein", "lat": 8.7255, "lon": 167.7151, "country": "USA", "type": "test"},
  {"name": "Plesetsk", "lat": 62.9260, "lon": 40.5817, "country": "Russia", "type": "icbm"},
  {"name": "Yasny", "lat": 51.3464, "lon": 59.1677, "country": "Russia", "type": "icbm"},
  {"name": "Uzhur", "lat": 56.0930, "lon": 90.3636, "country": "Russia", "type": "icbm"},
  {"name": "Dongfeng", "lat": 40.4360, "lon": 99.8590, "country": "China", "type": "icbm"},
  {"name": "Xuanhua", "lat": 40.0850, "lon": 115.0240, "country": "China", "type": "icbm"},
  {"name": "Delingha", "lat": 37.3710, "lon": 97.3720, "country": "China", "type": "icbm"},
  {"name": "Musudan-ri", "lat": 40.0333, "lon": 128.0833, "country": "North Korea", "type": "test"},
  {"name": "Kusong", "lat": 40.0333, "lon": 125.6167, "country": "North Korea", "type": "icbm"},
  {"name": "Wonsan", "lat": 39.1833, "lon": 127.4167, "country": "North Korea", "type": "srbm"},
  {"name": "Test Site Alpha", "lat": 37.0, "lon": -116.0, "country": "Test", "type": "test"},
  {"name": "Test Site Beta", "lat": 35.0, "lon": -118.0, "country": "Test", "type": "test"},
  {"name": "Site A", "lat": 45.0, "lon": 60.0, "country": "Test", "type": "icbm"},
  {"name": "Site B", "lat": 50.0, "lon": 70.0, "country": "Test", "type": "icbm"},
  {"name": "Site C", "lat": 55.0, "lon": 80.0, "country": "Test", "type": "icbm"},
  {"name": "Site D", "lat": 40.0, "lon": 90.0, "country": "Test", "type": "irbm"},
  {"name": "Site E", "lat": 35.0, "lon": 100.0, "country": "Test", "type": "irbm"},
  {"name": "Site F", "lat": 30.0, "lon": 110.0, "country": "Test", "type": "irbm"},
  {"name": "Launch Site 1", "lat": 42.0, "lon": 128.0, "country": "Test", "type": "icbm"},
  {"name": "Launch Site 2", "lat": 39.0, "lon": 125.0, "country": "Test", "type": "srbm"},
  {"name": "Launch Site 3", "lat": 13.5, "lon": 144.8, "country": "Test", "type": "irbm"},
  {"name": "Launch Site 4", "lat": 21.3, "lon": -157.8, "country": "Test", "type": "icbm"},
  {"name": "Launch Site 5", "lat": 61.2, "lon": -149.9, "country": "Test", "type": "icbm"}
]